City_ID,City,Lat,Lng,Max Temp,Humidity,Cloudiness,Wind Speed,Country,Date
0,port-aux-francais,-49.35,70.2167,2.65,78,92,12.29,TF,1691616214
1,punta arenas,-53.15,-70.9167,3.73,91,100,3.51,CL,1691615864
2,olyokminsk,60.3736,120.4264,16.11,95,7,1.56,RU,1691616295
3,weno,7.4515,151.8468,26.97,100,75,2.06,FM,1691616228
4,chitapur,17.1167,77.0833,26.49,72,100,5.08,IN,1691616295
5,waitangi,-43.9535,-176.5597,9.9,75,78,2.68,NZ,1691616219
6,broome,42.2506,-75.833,26.78,66,0,3.09,US,1691616292
7,taro,-8.3862,115.28,18.0,88,80,0.68,ID,1691616295
8,adamstown,-25.066,-130.1015,18.87,69,59,9.65,PN,1691616153
9,olonkinbyen,70.9221,-8.7187,6.0,100,100,3.48,SJ,1691616215
10,enewetak,11.3474,162.3373,28.51,77,84,6.47,MH,1691616296
11,invercargill,-46.4,168.35,1.68,96,85,1.34,NZ,1691616046
12,tual,-5.6667,132.75,25.62,81,99,9.92,ID,1691616296
13,yellowknife,62.456,-114.3525,21.29,43,75,8.23,CA,1691616158
14,copala,16.65,-98.9833,30.72,65,100,3.26,MX,1691616296
15,margate,51.3813,1.3862,17.05,78,0,1.79,GB,1691616278
16,qaqortoq,60.7167,-46.0333,7.69,75,16,1.94,GL,1691616296
17,hermanus,-34.4187,19.2345,13.0,85,0,4.36,ZA,1691616296
18,longyearbyen,78.2186,15.6401,9.91,71,0,3.09,SJ,1691616020
19,pacocha,-17.5833,-71.3333,18.08,82,100,3.09,PE,1691616297
20,rio de janeiro,-22.9028,-43.2075,22.0,78,75,6.17,BR,1691615700
21,atafu village,-8.5421,-172.5159,28.29,79,100,6.71,TK,1691616297
22,igrim,63.1906,64.4162,10.23,67,13,2.29,RU,1691616297
23,ushuaia,-54.8,-68.3,7.81,53,40,6.69,AR,1691616151
24,grytviken,-54.2811,-36.5092,-7.41,73,12,2.52,GS,1691616151
25,tura,25.5198,90.2201,23.5,98,100,1.03,IN,1691616297
26,port mathurin,-19.6833,63.4167,22.95,63,0,7.4,MU,1691616297
27,nuku'alofa,-21.1333,-175.2,23.19,88,75,3.6,TO,1691616182
28,kirgiz-miyaki,53.6324,54.7979,15.76,79,0,1.45,RU,1691616298
29,el charco,2.4769,-78.1105,27.92,81,96,3.4,CO,1691616298
30,lebu,-37.6167,-73.65,11.71,94,100,10.58,CL,1691616223
31,dzhetygara,52.1908,61.2006,16.65,82,79,6.05,KZ,1691616298
32,iqaluit,63.7506,-68.5145,4.85,100,100,4.12,CA,1691616298
33,bethel,41.3712,-73.414,30.12,51,0,4.12,US,1691616220
34,tozeur,33.9197,8.1335,33.22,38,0,9.26,TN,1691616298
35,ad dabbah,18.05,30.95,29.96,51,95,4.78,SD,1691616298
36,albany,42.6001,-73.9662,28.03,52,51,0.45,US,1691616128
37,ilulissat,69.2167,-51.1,12.01,43,75,1.54,GL,1691616235
38,afaahiti,-17.75,-149.2833,25.93,71,93,6.18,PF,1691616162
39,blackmans bay,-43.0167,147.3167,12.07,70,100,3.05,AU,1691616153
40,yenotayevka,47.2456,47.0281,29.08,38,59,2.96,RU,1691616299
41,papatowai,-46.5619,169.4708,2.68,87,95,2.61,NZ,1691616222
42,bredasdorp,-34.5322,20.0403,10.69,92,0,1.59,ZA,1691616151
43,hauterive,46.0901,3.4459,20.42,73,0,1.54,FR,1691616299
44,aljezur,37.3191,-8.8033,19.37,91,0,3.85,PT,1691616299
45,labytnangi,66.6572,66.4183,9.55,80,7,3.1,RU,1691616290
46,ancud,-41.8697,-73.8203,10.93,91,100,10.11,CL,1691616172
47,kindu,-2.95,25.95,24.64,54,3,0.82,CD,1691616229
48,rudnichnyy,59.617,52.4703,14.17,73,60,1.46,RU,1691616300
49,cabo san lucas,22.8909,-109.9124,33.92,70,100,4.63,MX,1691616199
50,villanueva,15.3167,-88.0,35.02,66,20,5.66,HN,1691616300
51,tolanaro,-25.0319,46.9987,19.42,90,6,3.03,MG,1691616165
52,badger,64.8,-147.5333,21.4,78,100,2.06,US,1691616300
53,zapala,-38.8992,-70.0544,13.25,38,100,8.55,AR,1691616300
54,kenai,60.5544,-151.2583,14.52,93,100,4.12,US,1691616300
55,bereznik,62.8551,42.7072,16.36,92,7,2.01,RU,1691616301
56,polyarnyy,69.1989,33.4478,19.08,73,0,2.85,RU,1691616301
57,casilda,-33.0442,-61.1681,18.59,54,90,2.43,AR,1691616301
58,codrington,-38.2667,141.9667,10.34,82,74,7.56,AU,1691616301
59,anadyr,64.75,177.4833,11.28,82,75,2.0,RU,1691616228
60,puerto aysen,-45.4,-72.7,9.02,93,100,0.0,CL,1691616302
61,whitehorse,60.7161,-135.0538,20.05,46,75,2.06,CA,1691616302
62,college,64.8569,-147.8028,21.44,77,75,2.06,US,1691616224
63,aasiaat,68.7098,-52.8699,4.56,81,16,3.94,GL,1691616302
64,vorkuta,67.5,64.0,7.84,88,35,3.08,RU,1691616214
65,banda aceh,5.5577,95.3222,26.07,83,89,5.59,ID,1691616303
66,bilibino,68.0546,166.4372,10.98,47,99,1.54,RU,1691616154
67,klyuchi,52.2667,79.1667,19.64,46,80,3.08,RU,1691616303
68,chalette-sur-loing,48.0134,2.7359,17.9,84,0,2.19,FR,1691616303
69,stanley,54.868,-1.6985,17.66,85,75,2.06,GB,1691616169
70,okha,53.5739,142.9478,13.65,90,92,3.03,RU,1691616288
71,malango,-2.9627,119.9001,18.0,98,49,0.85,ID,1691616304
72,port lincoln,-34.7333,135.8667,10.96,69,70,4.53,AU,1691616260
73,fallon,39.4735,-118.7774,34.4,24,75,2.57,US,1691616103
74,belgrade,44.804,20.4651,19.81,77,0,2.57,RS,1691616304
75,togur,58.3631,82.8265,12.61,90,97,2.61,RU,1691616285
76,dolores,-36.3132,-57.6792,11.66,85,79,3.43,AR,1691616306
77,nova sintra,14.8667,-24.7167,23.02,73,51,7.43,CV,1691616306
78,loa janan,-0.583,117.095,22.94,94,100,1.19,ID,1691616306
79,nadi,-17.8,177.4167,25.0,73,75,0.0,FJ,1691616168
80,flen,59.0583,16.5878,13.65,97,100,3.72,SE,1691616306
81,cannonvale,-20.2833,148.7,19.66,80,44,5.22,AU,1691616307
82,tegueste,28.5167,-16.3167,22.11,80,40,8.75,ES,1691616307
83,puerto leguizamo,-0.1934,-74.7819,29.49,66,91,0.92,CO,1691616307
84,jamestown,42.097,-79.2353,27.23,54,20,5.66,US,1691616139
85,san luis,-33.295,-66.3356,18.26,28,100,1.63,AR,1691616204
86,korla,41.7597,86.1469,27.45,26,0,2.03,CN,1691616307
87,mahina,-17.5065,-149.489,26.87,65,20,2.57,PF,1691616307
88,puerto ayora,-0.7393,-90.3518,28.98,85,99,4.92,EC,1691616159
89,glasgow,55.8652,-4.2576,17.24,90,100,1.03,GB,1691616199
90,puerto natales,-51.7236,-72.4875,2.91,95,87,1.23,CL,1691616308
91,nova xavantina,-14.6667,-52.35,32.74,17,2,1.48,BR,1691616308
92,richards bay,-28.783,32.0377,19.26,73,100,1.97,ZA,1691616308
93,san rafael del sur,11.8485,-86.4384,35.54,45,59,5.06,NI,1691616308
94,hithadhoo,-0.6,73.0833,27.06,76,63,1.79,MV,1691616308
95,happy valley-goose bay,53.3168,-60.3315,18.17,77,100,3.6,CA,1691616213
96,daloa,6.8774,-6.4502,21.93,98,95,2.23,CI,1691616309
97,xichang,27.8964,102.2634,19.52,95,100,0.78,CN,1691616309
98,shibetsu,43.659,145.132,21.92,99,100,3.89,JP,1691616309
99,mount isa,-20.7333,139.5,6.87,87,6,0.0,AU,1691616179
100,praia da vitoria,38.7333,-27.0667,26.14,78,20,3.38,PT,1691616309
101,hawaiian paradise park,19.5933,-154.9731,27.8,77,100,2.57,US,1691616154
102,lihue,21.9789,-159.3672,32.58,63,75,9.77,US,1691616237
103,le port,-20.9373,55.2919,20.98,90,31,1.17,RE,1691616310
104,tadine,-21.55,167.8833,19.3,58,0,7.07,NC,1691616310
105,manokwari,-0.8667,134.0833,25.18,73,100,1.72,ID,1691616289
106,pisco,-13.7,-76.2167,21.03,73,20,4.63,PE,1691616238
107,sitka,57.0531,-135.33,15.94,82,100,2.57,US,1691616311
108,santa cruz,-17.8,-63.1667,29.7,48,0,6.69,BO,1691615808
109,smithers,54.7804,-127.1743,18.18,68,75,2.06,CA,1691616240
110,barbacoas,1.6715,-78.1398,28.15,81,88,2.52,CO,1691616311
111,lucapa,-8.4192,20.7447,22.49,26,1,0.14,AO,1691616311
112,west island,-12.1568,96.8225,24.99,83,100,6.17,CC,1691616222
113,ironwood,46.4547,-90.171,23.23,53,0,3.6,US,1691616311
114,rongelap,11.1635,166.8941,27.9,76,41,2.85,MH,1691616235
115,sisimiut,66.9395,-53.6735,6.43,81,100,3.6,GL,1691616161
116,carnarvon,-24.8667,113.6333,19.4,75,28,4.53,AU,1691616312
117,vilyuysk,63.7553,121.6247,13.41,60,1,3.29,RU,1691616312
118,rabo de peixe,37.8,-25.5833,22.73,94,20,3.6,PT,1691616312
119,riyadh,24.6877,46.7219,32.08,9,0,1.64,SA,1691616288
120,tobelo,1.7284,128.0095,25.48,83,94,3.41,ID,1691616312
121,yavas,54.4159,42.8491,18.36,95,13,2.0,RU,1691616312
122,alice springs,-23.7,133.8833,5.75,75,0,0.0,AU,1691616312
123,impfondo,1.6381,18.0667,22.6,93,100,1.2,CG,1691616313
124,sumenep,-7.0167,113.8667,24.47,77,66,3.99,ID,1691616313
125,trairi,-3.2778,-39.2689,25.48,81,81,5.2,BR,1691616313
126,hadibu,12.65,54.0333,25.48,81,69,7.45,YE,1691616313
127,qui nhon,13.7667,109.2333,27.8,71,69,3.68,VN,1691616150
128,haiku-pauwela,20.9219,-156.3051,28.47,57,40,9.26,US,1691616313
129,san mariano,7.5,126.0,22.28,94,100,1.64,PH,1691616313
130,san antonio de pale,-1.4014,5.6325,23.75,81,90,5.63,GQ,1691616314
131,liezen,47.5667,14.2333,10.9,99,100,1.75,AT,1691616314
132,edinburgh of the seven seas,-37.0676,-12.3116,10.83,60,63,11.17,SH,1691616314
133,talnakh,69.4865,88.3972,13.45,65,100,2.17,RU,1691616314
134,melfort,52.8667,-104.6177,20.07,34,95,4.63,CA,1691616314
135,machico,32.7,-16.7667,24.35,78,20,1.03,PT,1691616176
136,boyalik,41.2634,28.6314,22.51,65,98,6.35,TR,1691616291
137,hluti,-27.2167,31.6167,15.31,84,87,1.5,SZ,1691616315
138,port elizabeth,-33.918,25.5701,17.16,77,0,7.72,ZA,1691616237
139,ozalp,38.6548,43.993,19.67,28,0,2.28,TR,1691616315
140,whitby,54.4877,-0.615,17.95,75,87,0.89,GB,1691616052
141,tazacorte,28.629,-17.9293,24.54,92,0,6.69,ES,1691616172
142,leua,48.2156,18.6071,14.11,92,84,1.48,SK,1691616315
143,hsinchu,24.8036,120.9686,29.92,78,8,0.89,TW,1691616315
144,tiksi,71.6872,128.8694,16.46,52,8,3.17,RU,1691616216
145,kaa-khem,51.6833,94.7333,16.21,93,100,0.89,RU,1691616315
146,margaret river,-33.95,115.0667,10.49,78,100,1.57,AU,1691616155
147,rawai,7.7797,98.3253,29.99,72,43,4.41,TH,1691616316
148,priozersk,61.0393,30.1291,18.86,92,100,1.57,RU,1691616316
149,hirado,33.3597,129.5531,25.77,87,100,23.98,JP,1691616316
150,nevel'sk,46.6733,141.8633,15.68,93,100,2.15,RU,1691616316
151,al bukayriyah,26.1442,43.6593,34.87,10,3,4.72,SA,1691616317
152,trinidad,-14.8333,-64.9,31.99,51,0,2.06,BO,1691616292
153,bargaal,11.2864,51.0773,29.54,55,100,9.49,SO,1691616317
154,pyhajarvi,67.0701,27.2176,15.46,95,12,0.76,FI,1691616317
155,mirny,62.5353,113.9611,16.8,88,97,1.79,RU,1691616317
156,saint-pierre,-21.3393,55.4781,19.82,77,0,3.6,RE,1691616317
157,baden,47.9974,16.233,17.45,86,84,1.83,AT,1691615907
158,auki,-8.7676,160.7034,25.41,90,100,5.11,SB,1691616318
159,bubaque,11.2833,-15.8333,27.24,82,74,3.14,GW,1691616227
160,vershino-darasunskiy,52.35,115.5167,15.04,55,99,1.58,RU,1691616318
161,canico,32.6333,-16.85,24.35,78,20,1.03,PT,1691616318
162,i-n-salah,27.1935,2.4607,37.43,10,0,7.76,DZ,1691616318
163,milazzo,38.2212,15.2383,24.99,72,84,1.79,IT,1691616318
164,benton,36.3334,-94.3335,29.19,76,0,6.17,US,1691616318
165,kodiak,57.79,-152.4072,12.73,94,100,2.57,US,1691616221
166,vetovo,43.7,26.2667,16.95,70,72,3.57,BG,1691616319
167,kununurra,-15.7667,128.7333,13.99,77,39,1.54,AU,1691616283
168,yuzhno-kurilsk,44.0306,145.8556,19.68,99,100,4.33,RU,1691616224
169,baiao,-2.7906,-49.6717,25.72,81,74,2.57,BR,1691616319
170,novotitarovskaya,45.2356,38.9792,26.06,74,37,2.79,RU,1691616041
171,isafjordur,66.0755,-23.124,9.13,63,86,3.68,IS,1691616155
172,firuzabad,28.8438,52.5707,29.25,31,96,2.7,IR,1691616319
173,canchungo,12.0672,-16.0333,27.07,85,78,2.23,GW,1691616319
174,mahibadhoo,3.7833,72.9667,27.63,79,100,6.02,MV,1691616081
175,muisne,0.6,-80.0333,26.03,81,100,5.0,EC,1691616296
176,colonia,50.9333,6.95,18.31,73,20,1.03,DE,1691616047
177,gamba,-2.65,10.0,21.86,89,59,2.43,GA,1691616291
178,sarmiento,-45.5882,-69.07,12.99,60,100,5.95,AR,1691616151
179,prince george,53.9166,-122.753,23.47,45,40,0.89,CA,1691616320
180,igarka,67.4667,86.5833,13.21,96,97,2.71,RU,1691616320
181,pama,11.2497,0.7075,23.52,97,100,3.19,BF,1691616321
182,port moresby,-9.4431,147.1797,23.68,73,40,5.14,PG,1691616321
183,thompson,55.7435,-97.8558,19.09,48,75,1.54,CA,1691616011
184,matelica,43.2541,13.0106,20.83,74,76,2.27,IT,1691616321
185,laguna,38.421,-121.4238,33.63,38,0,3.6,US,1691616321
186,arraial do cabo,-22.9661,-42.0278,21.92,78,75,6.17,BR,1691616147
187,mata-utu,-13.2816,-176.1745,27.93,76,11,5.07,WF,1691616321
188,souda,35.4844,24.0744,24.63,73,0,0.0,GR,1691616322
189,novyy urgal,51.0736,132.5642,16.24,77,81,0.76,RU,1691616322
190,mitu,1.1983,-70.1733,26.75,76,100,1.34,CO,1691616322
191,ar rutbah,33.0381,40.2848,32.13,11,0,5.54,IQ,1691616322
192,chingola,-12.529,27.8838,16.13,34,2,3.52,ZM,1691616322
193,kushiro,42.975,144.3747,20.16,99,100,4.42,JP,1691616322
194,hamilton,39.1834,-84.5333,27.55,80,75,6.17,US,1691616069
195,chonchi,-42.6128,-73.8092,10.07,96,100,4.4,CL,1691616229
196,ta`u,-14.2336,-169.5144,27.1,74,7,4.43,AS,1691616322
197,shalqar,47.8333,59.6,24.4,43,0,6.38,KZ,1691616323
198,hengchun,22.0042,120.7439,27.77,85,99,7.21,TW,1691616323
199,iskateley,67.6803,53.1512,12.28,83,38,2.54,RU,1691616226
200,radnevo,42.3,25.9333,18.26,71,23,2.75,BG,1691616323
201,paramonga,-10.6667,-77.8333,21.22,71,23,4.8,PE,1691616323
202,al qusiyah,27.4402,30.8184,30.15,25,0,3.34,EG,1691616323
203,ploneour-lanvern,47.9,-4.2833,20.18,88,0,1.03,FR,1691616323
204,lompoc,34.6391,-120.4579,29.08,75,100,4.12,US,1691616050
205,loch garman,52.3342,-6.4575,17.34,100,0,1.34,IE,1691616324
206,maitum,6.0392,124.4986,25.7,82,100,1.53,PH,1691616324
207,ust-nera,64.5667,143.2,16.09,60,12,1.55,RU,1691616324
208,antsiranana,-12.2787,49.2917,22.02,79,1,5.18,MG,1691616324
209,hotan,37.0997,79.9269,27.68,26,55,2.9,CN,1691616324
210,lorengau,-2.0226,147.2712,27.52,77,100,6.11,PG,1691616226
211,el bauga,18.262,33.9081,33.51,39,98,6.69,SD,1691616324
212,itoman,26.1247,127.6694,27.01,100,75,3.09,JP,1691616325
213,shache,38.4167,77.2406,28.17,23,3,2.74,CN,1691616325
214,las palmas,28.4204,-14.0131,23.44,73,20,5.66,ES,1691616325
215,bella vista,36.4295,-94.2316,29.75,76,100,6.17,US,1691616325
216,mount gambier,-37.8333,140.7667,9.93,76,100,4.76,AU,1691616133
217,aflou,34.1128,2.1023,28.12,21,18,3.62,DZ,1691616325
218,sao gabriel da cachoeira,-0.1303,-67.0892,30.08,67,45,0.71,BR,1691616325
219,luderitz,-26.6481,15.1594,23.46,44,78,2.33,NA,1691616326
220,mount pearl,47.5166,-52.7813,13.86,85,100,6.69,CA,1691616326
221,mangrol,21.1167,70.1167,26.99,83,100,7.72,IN,1691616326
222,awjilah,29.1081,21.2869,26.93,49,0,7.03,LY,1691616326
223,ribeira grande,38.5167,-28.7,24.22,88,20,4.12,PT,1691616326
224,nizhneudinsk,54.9076,99.0276,14.95,85,100,1.76,RU,1691616156
225,podborany,50.2294,13.4119,13.84,68,32,1.3,CZ,1691616326
226,kirensk,57.7853,108.1119,16.96,89,100,1.55,RU,1691616327
227,noumea,-22.2763,166.4572,20.0,99,45,5.59,NC,1691616011
228,mejit,10.2753,170.8646,27.8,71,85,4.79,MH,1691616077
229,island harbour,50.724,-1.2758,17.31,89,0,1.63,GB,1691616327
230,inirida,3.8653,-67.9239,32.04,60,52,1.06,CO,1691616327
231,east london,-33.0153,27.9116,17.14,80,65,7.55,ZA,1691616163
232,remire-montjoly,4.9167,-52.2667,29.02,74,0,4.63,GF,1691616162
233,san patricio,28.017,-97.5169,38.99,44,0,9.62,US,1691616223
234,new norfolk,-42.7826,147.0587,12.73,79,100,2.69,AU,1691616328
235,turpan,42.9333,89.1667,32.59,27,30,1.55,CN,1691616328
236,worbis,51.4167,10.3667,12.92,75,48,0.72,DE,1691616328
237,beau vallon,-20.4189,57.6953,22.34,73,20,4.12,MU,1691616329
238,gadzhiyevo,69.2551,33.3362,18.74,74,0,2.18,RU,1691616329
239,misratah,32.3754,15.0925,26.33,63,0,4.03,LY,1691616329
240,georgetown,5.4112,100.3354,27.75,96,40,3.09,MY,1691616036
241,dudinka,69.4058,86.1778,13.68,70,100,8.86,RU,1691616225
242,kalmunai,7.4167,81.8167,26.55,81,100,2.69,LK,1691616180
243,asau,46.4333,26.4,15.71,62,75,1.33,RO,1691616330
244,nadym,65.5333,72.5167,8.26,78,0,8.8,RU,1691616330
245,taco pozo,-25.6167,-63.2833,25.46,30,17,3.4,AR,1691616330
246,antigonish,45.6169,-61.9986,21.01,97,65,2.24,CA,1691616330
247,ballina,-28.8667,153.5667,10.43,85,7,2.56,AU,1691616331
248,kapuskasing,49.4169,-82.4331,23.05,56,75,5.14,CA,1691616224
249,mamou,10.5,-12.0,21.48,98,100,1.82,GN,1691616331
250,jiangzi,28.95,89.6333,9.22,68,49,1.84,CN,1691616331
251,nanga eboko,4.6833,12.3667,20.13,99,100,1.33,CM,1691616331
252,tazovsky,67.4667,78.7,7.92,86,80,8.37,RU,1691616164
253,bati,11.1833,40.0167,19.7,71,100,2.98,ET,1691616332
254,utrik,11.2278,169.8474,28.01,73,90,5.32,MH,1691616077
255,saint-philippe,-21.3585,55.7679,19.77,80,35,5.14,RE,1691616332
256,saipan,15.1355,145.701,28.39,100,100,4.12,MP,1691616069
257,taoudenni,22.6783,-3.9836,42.29,11,37,9.26,ML,1691616286
258,khromtau,50.2503,58.4347,15.23,84,18,5.9,KZ,1691616332
259,lycksele,64.5954,18.6735,12.93,88,40,1.03,SE,1691616332
260,egilsstadir,65.2653,-14.3948,9.95,62,75,3.09,IS,1691616333
261,dunedin,-45.8742,170.5036,5.45,67,39,2.68,NZ,1691616297
262,jagnair,26.8667,77.6,28.86,68,97,5.54,IN,1691616333
263,chardara,41.2547,67.9692,25.24,44,0,1.54,KZ,1691616333
264,sanctuary point,-35.1114,150.629,15.67,50,91,3.13,AU,1691616333
265,chinju,35.1928,128.0847,24.9,97,100,8.54,KR,1691616333
266,sirte,31.2089,16.5887,26.57,60,1,4.54,LY,1691616333
267,nagua,19.3832,-69.8474,27.17,94,75,0.0,DO,1691616334
268,ramban,33.25,75.25,22.44,86,49,0.85,IN,1691616334
269,san jose de jachal,-30.2406,-68.7469,21.81,16,5,1.8,AR,1691616334
270,avarua,-21.2078,-159.775,25.03,69,75,9.77,CK,1691616334
271,guerrero negro,27.9769,-114.0611,27.82,58,13,7.89,MX,1691616165
272,beloyarskiy,63.7119,66.6722,9.93,82,12,2.43,RU,1691616334
273,yaren,-0.5472,166.916,28.02,75,51,2.77,NR,1691616151
274,tofol,5.3248,163.0078,28.05,75,86,4.75,FM,1691616335
275,udachny,66.4167,112.4,14.14,58,98,2.66,RU,1691616154
276,wailua homesteads,22.0669,-159.378,32.24,72,75,9.77,US,1691616335
277,karasburg,-28.0167,18.75,17.83,19,0,5.5,NA,1691616335
278,tambura,5.6,27.4667,20.34,95,70,1.11,SS,1691616335
279,lashkar gah,31.5938,64.3716,30.42,11,0,1.44,AF,1691616335
280,vilyuchinsk,52.9306,158.4028,15.15,75,100,2.3,RU,1691616239
281,angaur state,6.906,134.13,28.11,80,98,8.74,PW,1691616289
282,kavieng,-2.5744,150.7967,27.15,79,95,6.56,PG,1691616335
283,santa ana,33.7456,-117.8678,34.42,66,75,4.63,US,1691616060
284,jaguaribe,-5.8906,-38.6219,30.14,27,57,3.31,BR,1691616183
285,limassol,34.675,33.0333,26.04,83,0,2.57,CY,1691616251
286,ziro,27.6333,93.8333,16.6,98,97,0.47,IN,1691616336
287,hasaki,35.7333,140.8333,27.95,78,55,5.31,JP,1691616336
288,nar'yan-mar,67.6713,53.087,12.5,83,43,2.5,RU,1691616234
289,zeya,53.75,127.2667,15.66,78,18,1.3,RU,1691616185
290,walvis bay,-22.9575,14.5053,13.38,88,14,2.7,NA,1691615607
291,palmer,42.1584,-72.3287,28.65,53,75,5.14,US,1691616250
292,tosontsengel,48.7567,98.2839,10.85,92,100,1.7,MN,1691616336
293,martaban,16.5314,97.6111,23.74,94,99,1.54,MM,1691616337
294,oulmes,33.4258,-6.0014,28.91,35,43,2.27,MA,1691616337
295,port alfred,-33.5906,26.891,16.21,87,39,2.24,ZA,1691616337
296,kapa'a,22.0752,-159.319,32.99,71,75,9.77,US,1691616337
297,antonio enes,-16.2325,39.9086,21.89,77,49,4.29,MZ,1691616337
298,okhotsk,59.3833,143.3,15.23,66,11,0.1,RU,1691616337
299,babruysk,53.15,29.2333,15.87,65,84,1.77,BY,1691616337
300,kingscliff,-28.2667,153.5667,13.2,100,5,0.0,AU,1691616338
301,ghat,24.9647,10.1728,31.55,14,0,6.39,LY,1691616161
302,gebeit,21.0667,36.3167,31.4,21,4,1.81,SD,1691616338
303,yashkul',46.1711,45.3435,32.07,34,11,5.16,RU,1691616338
304,bikenibeu village,1.3673,173.1241,29.98,74,20,0.51,KI,1691616301
305,arkhangel'sk,64.5401,40.5433,16.19,83,4,2.16,RU,1691616338
306,el gouna,27.3942,33.6782,33.05,38,0,8.7,EG,1691616338
307,toulepleu guere,6.574,-8.4259,21.69,98,91,2.21,CI,1691616338
308,newman,37.3138,-121.0208,34.47,14,0,3.87,US,1691616338
309,riviere-du-loup,47.8304,-69.5342,16.15,94,100,1.03,CA,1691616309
310,dubovskoye,47.4092,42.7575,26.4,52,36,3.66,RU,1691616339
311,pitimbu,-7.4706,-34.8086,26.33,76,61,6.53,BR,1691616339
312,narok,-1.0783,35.8601,13.83,84,46,1.88,KE,1691616339
313,sosnovo-ozerskoye,52.5249,111.5418,16.36,96,100,5.38,RU,1691616339
314,khandyga,62.6667,135.6,14.54,60,0,0.55,RU,1691616282
315,olenino,56.2092,33.4889,12.17,74,0,2.26,RU,1691616339
316,alpena,45.0617,-83.4327,29.18,46,0,4.63,US,1691616340
317,carmo,-21.9336,-42.6086,19.37,80,82,2.06,BR,1691616340
318,lichtenburg,-26.152,26.1597,9.12,41,18,4.08,ZA,1691616340
319,klaksvik,62.2266,-6.589,8.51,76,34,6.91,FO,1691616340
320,achit,56.7985,57.8994,16.3,74,71,1.37,RU,1691616340
321,stephanskirchen,47.8595,12.1528,15.49,94,100,2.21,DE,1691616340
322,timmins,48.4669,-81.3331,22.9,56,75,2.06,CA,1691616301
323,tromso,69.6496,18.957,20.01,52,0,6.17,NO,1691616295
324,prince rupert,54.3161,-130.3201,16.05,89,100,5.66,CA,1691616341
325,nishinoomote,30.7333,131.0,27.66,85,100,8.42,JP,1691616341
326,bodrum,37.0383,27.4292,25.96,74,0,3.58,TR,1691616232
327,fauske,67.2588,15.3918,19.02,64,3,3.72,NO,1691616341
328,howrah,22.5892,88.3103,28.0,89,100,1.54,IN,1691615730
329,vernon,50.2581,-119.2691,24.78,64,100,0.51,CA,1691616073
330,porto san giorgio,43.1827,13.7934,22.78,58,94,2.53,IT,1691616341
331,calvinia,-31.4707,19.776,15.41,27,0,2.6,ZA,1691616342
332,mar del plata,-38.0023,-57.5575,13.38,90,75,4.63,AR,1691616218
333,bandarbeyla,9.4942,50.8122,24.21,84,98,12.84,SO,1691616342
334,vadso,70.0744,29.7487,23.49,77,9,3.09,NO,1691616342
335,bantay,17.5847,120.3892,25.69,88,100,3.52,PH,1691616342
336,hakui,36.8833,136.7833,30.08,85,34,0.98,JP,1691616342
337,santa terezinha,-29.9002,-50.0904,16.28,96,100,8.69,BR,1691616278
338,mildura,-34.2,142.15,7.82,87,0,4.05,AU,1691616342
339,evanston,42.0411,-87.6901,26.2,65,100,3.09,US,1691616319
340,chernomorskoye,45.5039,32.6997,23.84,62,0,8.08,UA,1691616343
341,minas de marcona,-15.2119,-75.1103,17.24,64,5,5.46,PE,1691616343
342,lae,-6.7221,146.9847,22.37,96,100,2.12,PG,1691616343
343,serowe,-22.3833,26.7167,12.48,47,0,5.56,BW,1691616343
344,ciudad lazaro cardenas,17.9583,-102.2,31.48,65,20,2.86,MX,1691616209
345,soio,-6.1349,12.3689,22.07,90,35,3.51,AO,1691616343
346,alaghsas,17.0187,8.0168,26.11,63,38,11.46,NE,1691616343
347,tamanrasset,22.785,5.5228,27.95,32,92,2.57,DZ,1691616343
348,lushun,38.8,121.2667,25.12,74,0,7.73,CN,1691616344
349,eldridge,41.6581,-90.5846,23.2,82,20,3.09,US,1691616344
350,bridgewater,44.3835,-64.5155,21.79,86,97,7.72,CA,1691616047
351,alto barinas,8.5931,-70.2261,30.48,69,62,1.46,VE,1691616344
352,murghob,38.1702,73.9667,12.6,49,2,1.78,TJ,1691616344
353,gizo,-8.103,156.8419,26.31,82,99,10.2,SB,1691616344
354,loei,17.4167,101.5,18.25,91,100,1.86,TH,1691616344
355,alofi,-19.0595,-169.9187,26.94,89,75,3.09,NU,1691616345
356,peace river,56.2501,-117.286,18.17,94,100,2.57,CA,1691616345
357,yarrawonga,-36.0167,146.0,7.65,97,100,3.23,AU,1691616345
358,port-vila,-17.7338,168.3219,21.78,64,75,5.14,VU,1691616231
359,mao,39.8885,4.2658,24.31,83,0,2.57,ES,1691616345
360,masterton,-40.9597,175.6575,4.94,98,100,1.68,NZ,1691616179
361,fenyi,27.8112,114.6681,25.3,96,2,0.79,CN,1691616345
362,lake mills,43.0814,-88.9118,28.65,23,100,4.49,US,1691616345
363,jijel,36.8205,5.7667,21.97,83,0,1.54,DZ,1691616345
364,dien bien phu,21.3833,103.0167,22.81,100,100,0.88,VN,1691616346
365,hammerfest,70.6634,23.6821,22.25,68,0,0.0,NO,1691616293
366,sucua,-2.4667,-78.1667,27.41,69,40,3.6,EC,1691616346
367,qujing,25.4833,103.7833,16.4,97,78,1.0,CN,1691616346
368,dryden,49.7833,-92.7503,17.16,59,100,4.12,CA,1691616289
369,vyerkhnyadzvinsk,55.7815,27.9443,13.51,77,53,2.62,BY,1691616346
370,el granada,37.5027,-122.4694,32.26,70,100,4.63,US,1691616346
371,constantia,44.1833,28.65,18.38,64,1,4.25,RO,1691616186
372,tangalle,6.024,80.7911,26.09,88,100,4.09,LK,1691616346
373,merizo village,13.2658,144.6691,26.31,94,100,8.14,GU,1691616347
374,elin pelin,42.6667,23.6,17.87,67,20,3.09,BG,1691616347
375,zhangatas,43.5667,69.75,26.95,33,9,3.2,KZ,1691616347
376,harstad,68.799,16.5293,18.78,76,29,2.79,NO,1691616347
377,atambua,-9.1061,124.8925,19.62,89,67,1.98,ID,1691616347
378,niafunke,15.9322,-3.9906,37.14,27,70,2.78,ML,1691616347
379,churapcha,62.0025,132.4325,14.27,57,30,2.44,RU,1691616347
380,xiongzhou,25.1167,114.3,25.47,89,29,0.76,CN,1691616348
381,bay harbor,30.1471,-85.6146,33.89,68,0,6.17,US,1691616348
382,penon blanco,24.7897,-104.0369,33.7,18,96,7.22,MX,1691616348
383,susuman,62.7833,148.1667,7.98,83,90,0.85,RU,1691616348
384,warman,52.3168,-106.5679,20.95,43,75,4.12,CA,1691616348
385,touros,-5.1989,-35.4608,25.0,80,41,7.57,BR,1691616229
386,vila velha,-20.3297,-40.2925,22.97,86,75,4.12,BR,1691616348
387,sungai penuh,-2.0833,101.3833,17.07,96,20,1.5,ID,1691616348
388,berdigestyakh,62.0989,126.6992,13.33,65,16,3.11,RU,1691616349
389,lazaro cardenas,17.9583,-102.2,31.48,65,20,2.86,MX,1691615678
390,sant'antioco,39.0664,8.4522,20.82,71,0,3.91,IT,1691616349
391,hobyo,5.3505,48.5268,24.76,83,85,10.54,SO,1691616349
392,tsiombe,-25.3,45.4833,19.17,88,5,3.03,MG,1691616283
393,naze,28.3667,129.4833,25.51,89,63,5.23,JP,1691616349
394,podporozh'ye,60.9112,34.1706,15.63,98,100,2.06,RU,1691616349
395,novodvinsk,64.4165,40.8122,16.11,85,4,2.06,RU,1691616349
396,kerikeri,-35.2268,173.9474,10.65,76,1,2.27,NZ,1691616349
397,langzhong,31.5504,105.9938,25.47,91,73,1.66,CN,1691616350
398,fort mcmurray,56.7268,-111.381,14.77,88,100,6.69,CA,1691616131
399,morfou,35.1981,32.9914,27.49,78,0,1.4,CY,1691616350
400,nuestra senora del rosario de caa cati,-27.7507,-57.6207,20.17,73,77,1.68,AR,1691616350
401,leninsk-kuznetsky,54.6567,86.1737,14.12,72,48,2.75,RU,1691616350
402,berwick-upon-tweed,55.7833,-2.0,17.46,88,81,2.42,GB,1691616350
403,uturoa,-16.7333,-151.4333,24.93,70,9,7.92,PF,1691616350
404,aripuana,-9.1667,-60.6333,34.66,31,91,0.29,BR,1691616138
405,marine corps base hawaii - mcbh,21.4453,-157.7513,30.98,60,75,7.2,US,1691616351
406,zhaobaoshan,29.9695,121.6875,28.01,93,11,3.85,CN,1691616351
407,camiri,-20.05,-63.5167,25.88,34,0,0.0,BO,1691616351
408,tchintabaraden,15.8969,5.7985,31.07,50,11,5.94,NE,1691616351
409,umba,66.6871,34.3429,14.15,80,0,2.9,RU,1691616351
410,st. john's,47.5649,-52.7093,14.32,85,100,6.69,CA,1691616351
411,surubim,-7.8331,-35.7547,21.38,65,26,4.64,BR,1691616069
412,jaleshwar,26.6471,85.8008,26.16,92,98,4.08,NP,1691616352
413,grande prairie,55.1667,-118.8027,17.1,88,75,3.6,CA,1691615874
414,muynoq,43.7683,59.0214,29.09,31,0,3.65,UZ,1691616352
415,panji,-7.7253,114.0995,20.64,69,25,2.48,ID,1691616352
416,moyynkum,44.2914,72.9469,30.3,26,94,4.24,KZ,1691616352
417,iwon-up,40.3231,128.6553,20.91,97,100,2.89,KP,1691616352
418,shahr-e babak,30.1165,55.1186,25.75,20,38,6.24,IR,1691616352
419,morwell,-38.2333,146.4,10.22,97,100,2.79,AU,1691616352
420,geraldton,-28.7667,114.6,11.23,82,100,3.6,AU,1691616188
421,nuuk,64.1835,-51.7216,5.34,93,100,6.69,GL,1691616353
422,sogndal,61.2283,7.1003,10.21,100,100,0.0,NO,1691616353
423,lindesberg,59.592,15.2304,11.84,99,100,3.65,SE,1691616353
424,itako,35.9333,140.55,27.97,54,4,2.38,JP,1691616353
425,nyurba,63.2842,118.3319,14.2,71,1,2.62,RU,1691616353
426,kouroussa,10.65,-9.8833,23.66,94,77,2.23,GN,1691616353
427,selfoss,63.9331,-20.9971,12.25,76,99,3.26,IS,1691616353
428,san fernando,15.0286,120.6898,27.85,92,100,0.43,PH,1691616354
429,ust-tsilma,65.441,52.1498,15.23,85,1,0.9,RU,1691616354
430,titlagarh,20.3,83.15,24.42,82,14,2.14,IN,1691616354
431,flat river,37.8501,-90.5168,24.25,83,100,3.09,US,1691616354
432,embi,48.8264,58.1442,20.38,61,29,5.38,KZ,1691616354
433,thinadhoo,0.5333,72.9333,27.46,76,90,3.34,MV,1691616354
434,pyshma,56.9523,63.2513,16.99,78,100,2.33,RU,1691616354
435,praya,14.9215,-23.5087,26.3,73,20,7.2,CV,1691616354
436,jiuquan,39.7432,98.5174,24.38,49,100,0.35,CN,1691616355
437,caconda,-13.7333,15.0667,17.63,30,10,1.68,AO,1691616355
438,progreso,21.2833,-89.6667,37.28,68,3,6.19,MX,1691616355
439,sao geraldo do araguaia,-6.4006,-48.555,34.07,26,17,1.85,BR,1691616355
440,saldanha,-33.0117,17.9442,12.03,81,0,4.06,ZA,1691616355
441,dolinsk,47.35,142.8,14.25,96,100,3.21,RU,1691616355
442,gladstone,-23.85,151.25,13.77,82,0,2.57,AU,1691616355
443,wynyard,-41.0,145.7167,9.93,84,100,5.33,AU,1691616356
444,akjoujt,19.6969,-14.4164,35.72,22,2,7.12,MR,1691616281
445,takoradi,4.8845,-1.7554,24.02,85,75,4.73,GH,1691616356
446,wucheng,29.6008,118.175,23.64,96,2,1.01,CN,1691616356
447,kolonia,50.9333,6.95,17.7,76,20,1.03,DE,1691616225
448,doka,13.5167,35.7667,22.75,92,100,3.45,SD,1691616356
449,puerto san jose,13.9256,-90.8244,30.77,67,34,3.56,GT,1691616184
450,tabuk,17.4189,121.4443,23.78,86,100,1.43,PH,1691616356
451,copiapo,-27.3667,-70.3333,13.83,39,76,3.58,CL,1691616357
452,fale old settlement,-9.3852,-171.2468,28.41,78,30,6.71,TK,1691616279
453,kisangani,0.5167,25.2,22.61,93,68,1.02,CD,1691616357
454,sakakah,29.9697,40.2064,32.76,19,0,4.27,SA,1691616357
455,laojunmiao,39.8333,97.7333,20.2,56,88,0.44,CN,1691616357
456,kone,-21.0595,164.8658,18.3,69,54,4.26,NC,1691616172
457,kochenevo,55.0218,82.202,11.66,82,10,2.11,RU,1691616357
458,enshi,30.3,109.4833,23.61,98,7,0.17,CN,1691616357
459,jabor,5.921,169.6434,27.8,75,99,2.79,MH,1691616357
460,phan rang-thap cham,11.5667,108.9833,26.26,73,4,1.77,VN,1691616358
461,guarapuava,-25.3953,-51.4581,13.25,99,100,0.84,BR,1691616358
462,cruzeiro do sul,-29.5128,-51.9853,16.39,93,100,1.3,BR,1691616358
463,olovyannaya,50.95,115.5667,18.78,62,100,2.57,RU,1691616358
464,segezha,63.7415,34.3222,18.37,81,72,2.94,RU,1691616358
465,praia grande,-24.0058,-46.4028,22.08,55,100,3.09,BR,1691616358
466,inhambane,-23.865,35.3833,20.63,70,55,6.12,MZ,1691616255
467,gereida,11.2811,25.1414,24.42,82,71,3.19,SD,1691616358
468,nampa,43.5407,-116.5635,33.91,36,0,2.06,US,1691616046
469,manaure,11.7751,-72.4445,31.28,64,15,8.79,CO,1691616266
470,marsa alam,25.0757,34.8918,31.67,57,0,3.91,EG,1691616359
471,cihanbeyli,38.6607,32.9244,26.42,45,0,4.3,TR,1691616359
472,pacific grove,36.6177,-121.9166,24.66,79,0,6.17,US,1691616359
473,ribeira brava,32.65,-17.0667,24.35,69,5,1.04,PT,1691616359
474,vila franca do campo,37.7167,-25.4333,23.23,95,100,5.06,PT,1691616299
475,vanimo,-2.6741,141.3028,24.64,90,57,1.99,PG,1691616359
476,la passe,45.5549,-0.8967,25.13,49,1,5.83,FR,1691616359
477,zabol,32.25,67.25,24.15,15,5,4.94,AF,1691616359
478,betio village,1.358,172.9211,30.02,74,100,2.17,KI,1691616360
479,emporia,38.4039,-96.1817,29.11,54,40,2.57,US,1691616168
480,jianshui,23.6363,102.8264,20.26,98,100,0.24,CN,1691616360
481,sanga-sanga,5.0725,119.7853,27.65,72,76,1.25,PH,1691616360
482,gurupi,-11.7292,-49.0686,33.09,24,24,2.02,BR,1691616360
483,veseloyarsk,51.2836,81.1056,18.34,42,84,3.24,RU,1691616360
484,cooper's town,26.8667,-77.5167,30.04,74,97,3.42,BS,1691616360
485,port-cartier,50.0334,-66.8654,14.3,98,100,6.02,CA,1691616360
486,alice town,25.7167,-79.3,30.73,71,28,3.58,BS,1691616361
487,moranbah,-22.0016,148.0466,11.98,93,0,3.25,AU,1691616180
488,miyaly,48.8844,53.7836,24.42,41,5,3.82,KZ,1691616361
489,barkly west,-28.5354,24.5215,13.63,32,0,7.41,ZA,1691616361
490,sheridan,44.8333,-106.9173,29.83,35,0,3.13,US,1691616210
491,santa maria del oro,25.9333,-105.3667,34.4,16,60,5.47,MX,1691616361
492,tokmok,42.8417,75.3016,22.86,36,0,1.55,KG,1691616361
493,illizi,26.4833,8.4667,31.89,13,0,3.92,DZ,1691616361
494,lincoln,40.8,-96.667,28.41,61,0,2.06,US,1691616362
495,vorgashor,67.5833,63.95,7.83,88,28,3.01,RU,1691616153
496,grand falls-windsor,48.9332,-55.6649,16.39,85,100,4.34,CA,1691616228
497,cockburn town,21.4612,-71.1419,29.03,84,82,7.75,TC,1691616227
498,mili,6.0815,171.735,27.9,73,78,1.5,MH,1691616363
499,tarcento,46.2122,13.2258,19.85,79,100,3.08,IT,1691616363
500,portland,45.5234,-122.6762,29.23,50,75,3.09,US,1691615572
501,viedma,-40.8135,-62.9967,17.13,31,96,6.92,AR,1691616027
502,shenjiamen,29.9576,122.298,26.61,90,3,6.2,CN,1691616364
503,katsuura,35.1333,140.3,26.46,84,76,4.87,JP,1691616364
504,kristiansund,63.1115,7.732,11.36,87,100,1.03,NO,1691616364
505,westport,41.1415,-73.3579,30.97,46,20,5.14,US,1691616365
506,kailua-kona,19.6406,-155.9956,30.98,64,40,6.69,US,1691616365
507,leh,34.1667,77.5833,18.9,34,2,2.1,IN,1691616361
508,altai,46.3722,96.2583,14.12,53,0,2.61,MN,1691616365
509,goseong,34.9763,128.3236,25.02,97,100,10.36,KR,1691616365
510,duck lake,52.8168,-106.2344,21.51,33,100,5.67,CA,1691616365
511,coahuayana de hidalgo,18.7,-103.6583,32.76,64,19,4.06,MX,1691616365
512,mogocha,53.7333,119.7667,11.46,93,40,0.95,RU,1691616172
513,gribanovskiy,51.4579,41.9764,21.67,56,45,2.86,RU,1691616366
514,rabigh,22.7986,39.0349,31.68,61,0,0.41,SA,1691616366
515,jishui,33.7333,115.4,23.91,92,6,1.9,CN,1691616366
516,arauco,-37.2463,-73.3175,11.95,96,100,5.86,CL,1691616366
517,bay roberts,47.5999,-53.2648,14.52,86,100,2.24,CA,1691616366
518,tataouine,32.9297,10.4518,25.09,50,0,3.28,TN,1691616367
519,bemidji,47.4736,-94.8803,23.92,52,40,5.66,US,1691616367
520,borogontsy,62.6683,131.1683,13.66,69,38,2.45,RU,1691616367
521,bhimbar,32.9757,74.0793,29.59,64,40,2.86,PK,1691616367
522,sakaiminato,35.55,133.2333,30.99,58,75,4.63,JP,1691616367
523,calama,-22.4667,-68.9333,23.27,7,0,8.75,CL,1691616367
524,manismata,-2.4667,111.0333,21.58,95,44,1.34,ID,1691616368
525,santa elena de uairen,4.6167,-61.1333,24.36,74,44,2.96,VE,1691616155
526,pimentel,-6.8367,-79.9342,25.16,69,100,5.14,PE,1691616368
527,santo antonio,-6.3106,-35.4789,24.16,75,64,6.08,BR,1691616368
528,suez,29.9737,32.5263,25.81,60,0,5.32,EG,1691616368
529,zavodskoy,43.4597,132.2922,20.77,100,75,3.0,RU,1691616370
530,greymouth,-42.4667,171.2,4.38,78,46,3.98,NZ,1691616370
531,urengoy,65.9667,78.3667,8.57,93,100,7.28,RU,1691616370
532,hami,42.8,93.45,28.25,29,5,7.43,CN,1691616371
533,san alberto,7.7611,-73.3922,33.37,61,37,1.64,CO,1691616372
534,city of balikpapan,-1.242,116.8942,27.97,83,40,3.09,ID,1691616372
535,grenville,12.1167,-61.6167,29.03,73,100,3.35,GD,1691616372
536,broken hill,-31.95,141.4333,10.44,82,40,4.48,AU,1691616372
537,milford haven,51.7128,-5.0341,17.28,93,22,2.94,GB,1691616372
538,amga,60.8953,131.9608,12.49,68,68,1.36,RU,1691616296
539,tanjung pandan,-2.75,107.65,23.77,83,79,2.9,ID,1691616373
540,daugavpils,55.8833,26.5333,11.59,94,47,1.63,LV,1691616377
541,loja,-3.9931,-79.2042,21.67,39,75,7.2,EC,1691616187
542,metkovic,43.0542,17.6483,21.26,63,49,1.73,HR,1691616377
543,babana,10.4295,3.815,22.84,96,95,3.59,NG,1691616377
544,vinton,37.281,-79.897,28.91,60,75,3.6,US,1691616377
545,gmunden,47.9189,13.7975,14.08,95,100,2.75,AT,1691616377
546,yanjiang,30.1211,104.6481,25.69,92,96,2.06,CN,1691616377
547,lieksa,63.3167,30.0167,16.47,92,56,1.07,FI,1691616378
548,rikaze,29.25,88.8833,14.66,60,49,1.99,CN,1691616378
549,santa marta,11.2408,-74.199,31.03,76,75,5.14,CO,1691616292
550,wenzhou,27.9994,120.6668,26.12,93,83,1.65,CN,1691616378
551,bangor,54.6534,-5.669,20.16,89,100,2.06,GB,1691616378
552,namibe,-15.1961,12.1522,17.69,88,64,3.11,AO,1691616378
553,mujiayingzi,42.1167,118.7833,18.44,81,1,0.88,CN,1691616378
554,queenstown,-31.8976,26.8753,9.73,92,15,1.85,ZA,1691616379
555,callaway,30.153,-85.5699,34.39,68,0,6.17,US,1691616379
556,holualoa,19.6228,-155.9522,28.91,65,40,6.69,US,1691616379
557,bardai,11.65,7.2333,22.81,88,100,3.01,NG,1691616379
558,changli,39.7042,119.1506,23.16,79,5,1.6,CN,1691616379
559,port douglas,-16.4833,145.4667,21.22,79,99,6.59,AU,1691616379
560,roosevelt,33.9668,-103.4505,36.61,7,3,5.81,US,1691616379
561,petropavlovsk-kamchatsky,53.0452,158.6483,14.33,72,40,2.0,RU,1691616214
562,acapulco de juarez,16.8634,-99.8901,29.9,79,100,2.57,MX,1691616188
563,midvagur,62.0511,-7.1939,8.46,87,20,4.12,FO,1691616157
564,brookings,44.3114,-96.7984,27.88,61,75,3.6,US,1691616258
565,flying fish cove,-10.4217,105.6791,23.82,88,75,5.66,CX,1691616237
566,barabai,-2.5833,115.3833,22.27,88,64,0.93,ID,1691616380
567,satita,34.8184,36.1138,23.47,79,1,1.21,SY,1691616380
568,vodice,43.7608,15.7828,24.98,49,77,2.31,HR,1691616380
569,puerto deseado,-47.7503,-65.8938,10.5,70,93,6.63,AR,1691616380
570,callao,-12.0667,-77.15,22.16,68,100,6.17,PE,1691616278
571,dauphin,51.1494,-100.0502,21.08,46,20,6.69,CA,1691616381
572,tarasivtsi,48.2053,26.3699,17.29,53,80,0.75,RO,1691616381
573,samdari,25.8167,72.5833,27.11,79,46,6.07,IN,1691616381
574,papao,-17.75,-149.55,26.82,72,100,7.17,PF,1691616381
575,sovetskiy,61.3614,63.5842,14.95,61,93,2.6,RU,1691616381
576,lerwick,60.1545,-1.1494,11.0,71,95,10.47,GB,1691616381
577,mek'ele,13.4967,39.4753,18.05,76,100,0.79,ET,1691616381
578,freetown,8.484,-13.2299,25.84,89,75,5.14,SL,1691616087
579,saint-joseph,-21.3667,55.6167,19.21,77,19,3.38,RE,1691616382
580,el porvenir,13.7617,-87.3458,32.63,34,91,1.58,HN,1691616382
581,linhares,-19.3911,-40.0722,21.3,89,96,1.97,BR,1691616291
582,kismayo,-0.3582,42.5454,24.19,83,35,6.31,SO,1691616166
583,newport,51.5877,-2.9984,20.37,87,41,2.06,GB,1691616375
584,gouyave,12.1646,-61.7296,28.43,84,40,5.66,GD,1691616382
